[
  {
    "name": "Smith Falls State Park",
    "state": "Nebraska",
    "town": "Valentine",
    "cost": 15,
    "reservations": "Limited",
    "service": "Primitive; Basic",
    "features": "Waterfall; Kayaking; Canoeing; Hiking; Scenic river",
    "website": "https://outdoornebraska.gov/location/smith-falls/",
    "lat": 42.8739,
    "lng": -100.5494
  },
  {
    "name": "Dead Timber State Recreation Area",
    "state": "Nebraska",
    "town": "Central City",
    "cost": 15,
    "reservations": "No",
    "service": "Primitive; Basic",
    "features": "Fishing; Birding; Quiet camping",
    "website": "https://outdoornebraska.gov/location/dead-timber/",
    "lat": 41.1113,
    "lng": -98.0372
  },
  {
    "name": "Gallagher Canyon State Recreation Area",
    "state": "Nebraska",
    "town": "Brule",
    "cost": 15,
    "reservations": "No",
    "service": "Primitive",
    "features": "Lake McConaughy access; Fishing; Quiet camping",
    "website": "https://outdoornebraska.gov/location/gallagher-canyon/",
    "lat": 41.1248,
    "lng": -101.9277
  },
  {
    "name": "Rockford State Recreation Area",
    "state": "Nebraska",
    "town": "Beatrice",
    "cost": 15,
    "reservations": "Partial",
    "service": "Primitive; Basic",
    "features": "Fishing; Wildlife viewing; Quiet camping",
    "website": "https://outdoornebraska.gov/location/rockford-lake/",
    "lat": 40.2164,
    "lng": -96.8322
  },
  {
    "name": "Long Pine State Recreation Area",
    "state": "Nebraska",
    "town": "Long Pine",
    "cost": 15,
    "reservations": "Partial",
    "service": "Primitive; Basic",
    "features": "Tubing; Pine forest; Fishing; Hiking",
    "website": "https://outdoornebraska.gov/location/long-pine/",
    "lat": 42.5362,
    "lng": -99.7007
  },
  {
    "name": "Victoria Springs State Recreation Area",
    "state": "Nebraska",
    "town": "Anselmo",
    "cost": 15,
    "reservations": "Partial",
    "service": "Primitive; Basic",
    "features": "Spring-fed lake; Sandhills scenery; Fishing",
    "website": "https://outdoornebraska.gov/location/victoria-springs/",
    "lat": 41.6327,
    "lng": -99.8575
  },
  {
    "name": "Pelican Point State Recreation Area",
    "state": "Nebraska",
    "town": "Tekamah",
    "cost": 15,
    "reservations": "Partial",
    "service": "Primitive; Basic",
    "features": "Missouri River access; Fishing; Wildlife viewing",
    "website": "https://outdoornebraska.gov/location/pelican-point/",
    "lat": 41.7813,
    "lng": -96.2418
  },
  {
    "name": "Walgren Lake State Recreation Area",
    "state": "Nebraska",
    "town": "Hay Springs",
    "cost": 15,
    "reservations": "Partial",
    "service": "Primitive; Basic",
    "features": "Birding; Fishing; Wildlife viewing",
    "website": "https://outdoornebraska.gov/location/walgren-lake/",
    "lat": 42.6905,
    "lng": -102.6856
  },
  {
    "name": "Cheyenne State Recreation Area",
    "state": "Nebraska",
    "town": "Sidney",
    "cost": 15,
    "reservations": "Partial",
    "service": "Primitive; Basic",
    "features": "Fishing; Wildlife viewing; Quiet camping",
    "website": "https://outdoornebraska.gov/location/cheyenne/",
    "lat": 41.2168,
    "lng": -103.0128
  },
  {
    "name": "Mormon Island State Recreation Area",
    "state": "Nebraska",
    "town": "Grand Island",
    "cost": 15,
    "reservations": "Partial",
    "service": "Primitive; Basic",
    "features": "Platte River access; Birding; Crane migration",
    "website": "https://outdoornebraska.gov/location/mormon-island/",
    "lat": 40.7861,
    "lng": -98.4404
  },
  {
    "name": "Fort Kearny State Recreation Area",
    "state": "Nebraska",
    "town": "Kearney",
    "cost": 15,
    "reservations": "Partial",
    "service": "Primitive; Basic",
    "features": "Sandhill crane migration; Fishing; Hiking",
    "website": "https://outdoornebraska.gov/location/fort-kearny-sra/",
    "lat": 40.6996,
    "lng": -99.0195
  },
  {
    "name": "Wagon Train State Recreation Area",
    "state": "Nebraska",
    "town": "Hickman",
    "cost": 15,
    "reservations": "Partial",
    "service": "Primitive",
    "features": "Swimming beach; Fishing; Wildlife viewing",
    "website": "https://outdoornebraska.gov/location/wagon-train-sra/",
    "lat": 40.6255,
    "lng": -96.5874
  },
  {
    "name": "Yankee Hill State Recreation Area",
    "state": "Nebraska",
    "town": "Denton",
    "cost": 15,
    "reservations": "No",
    "service": "Primitive",
    "features": "Wildlife viewing; Quiet lake camping",
    "website": "https://outdoornebraska.gov/location/yankee-hill-sra/",
    "lat": 40.7289,
    "lng": -96.7901
  },
  {
    "name": "Pawnee State Recreation Area",
    "state": "Nebraska",
    "town": "Lincoln",
    "cost": 15,
    "reservations": "Yes",
    "service": "Primitive; Basic",
    "features": "Fishing; Swimming; Hiking; Wildlife viewing",
    "website": "https://outdoornebraska.gov/location/pawnee-sra/",
    "lat": 41.6541,
    "lng": -96.8113
  },
  {
    "name": "Streeter Campground",
    "state": "Nebraska",
    "town": "Aurora",
    "cost": 0,
    "reservations": "No",
    "service": "Electric hookups; Water; Dump station",
    "features": "Free city camping; Overnight stop; Fishing nearby",
    "website": "https://www.boondockersbible.com/campsite/streeter-campground-aurora-ne/",
    "lat": 40.8675,
    "lng": -98.0042
  },
  {
    "name": "Bessey Ranger District Dispersed Camping",
    "state": "Nebraska",
    "town": "Halsey",
    "cost": 0,
    "reservations": "No",
    "service": "Primitive dispersed camping",
    "features": "Sandhills; Hiking; Stargazing; National Forest",
    "website": "https://www.fs.usda.gov/r02/nebraska/recreation/dispersed-camping",
    "lat": 41.9026,
    "lng": -100.3076
  },
  {
    "name": "West Ash Dispersed Camping",
    "state": "Nebraska",
    "town": "Chadron",
    "cost": 0,
    "reservations": "No",
    "service": "Primitive dispersed camping",
    "features": "Pine Ridge scenery; Remote camping; Hiking",
    "website": "https://dispersedapp.com/camping/nebraska/",
    "lat": 42.8297,
    "lng": -103.0035
  },
  {
    "name": "Hayes Center State WMA Dispersed Camping",
    "state": "Nebraska",
    "town": "Hayes Center",
    "cost": 0,
    "reservations": "No",
    "service": "Primitive dispersed camping",
    "features": "Wildlife area; Remote camping; Stargazing",
    "website": "https://www.campgroundviews.com/campground/hayes-center-state-wma-dispersed-camping",
    "lat": 40.59,
    "lng": -100.9312
  },
  {
    "name": "Hull Lake SWA Dispersed Camping",
    "state": "Nebraska",
    "town": "Butte",
    "cost": 0,
    "reservations": "No",
    "service": "Primitive dispersed camping",
    "features": "Fishing; Wildlife area; Quiet camping",
    "website": "https://www.campgroundviews.com/campground/hull-lake-swa-dispersed-camping",
    "lat": 42.868,
    "lng": -98.8806
  },
  {
    "name": "Bordeaux WMA Dispersed Camping",
    "state": "Nebraska",
    "town": "Chadron",
    "cost": 0,
    "reservations": "No",
    "service": "Primitive dispersed camping",
    "features": "Pine Ridge scenery; Wildlife; Remote camping",
    "website": "https://www.campgroundviews.com/campground/bordeaux-wma-dispersed-camping",
    "lat": 42.8073,
    "lng": -102.8988
  },
  {
    "name": "Cozad WMA Dispersed Camping",
    "state": "Nebraska",
    "town": "Cozad",
    "cost": 0,
    "reservations": "No",
    "service": "Primitive dispersed camping",
    "features": "Prairie camping; Fishing; Wildlife area",
    "website": "https://www.campgroundviews.com/campground/cozad-wma-dispersed-camping",
    "lat": 40.8403,
    "lng": -99.9852
  },
  {
    "name": "Enders Reservoir WMA Dispersed Camping",
    "state": "Nebraska",
    "town": "Enders",
    "cost": 0,
    "reservations": "No",
    "service": "Primitive dispersed camping",
    "features": "Reservoir access; Stargazing; Wildlife viewing",
    "website": "https://www.campendium.com/enders-reservoir-wma",
    "lat": 40.4406,
    "lng": -101.5496
  },
  {
    "name": "Yankee Hill State Recreation Area",
    "state": "Nebraska",
    "town": "Denton",
    "cost": 15,
    "reservations": "No",
    "service": "Primitive camping",
    "features": "Wildlife viewing; Electric motor lake; Quiet camping",
    "website": "https://www.recreation.gov/camping/gateways/299",
    "lat": 40.7289,
    "lng": -96.7901
  }
]